var mid = {
"type": "FeatureCollection",
"name": "restaurant_date_mid",
"crs": { "type": "name", "properties": { "name": "urn:ogc:def:crs:OGC:1.3:CRS84" } },
"features": [
{ "type": "Feature", "properties": { "restaurant_id": "uGzxwS3Q6QuyFw2ZnDvw0w", "name": "JackBeagles", "lat": 35.2474779, "long": -80.8055628, "stars": 4.0, "price": "2", "earliestDate": "1\/3\/11", "year": 2011 }, "geometry": { "type": "Point", "coordinates": [ -80.8055628, 35.2474779 ] } },
{ "type": "Feature", "properties": { "restaurant_id": "BpW65jN4yscndnTsdyzoHQ", "name": "Roots Catering", "lat": 35.199474, "long": -80.879974, "stars": 4.0, "price": "1", "earliestDate": "4\/29\/11", "year": 2011 }, "geometry": { "type": "Point", "coordinates": [ -80.879974, 35.199474 ] } },
{ "type": "Feature", "properties": { "restaurant_id": "zPfSGU3hzNPNV8twXBiayA", "name": "Best Impressions Caterers", "lat": 35.2040824, "long": -80.8685935, "stars": 4.5, "price": "NA", "earliestDate": "10\/22\/11", "year": 2011 }, "geometry": { "type": "Point", "coordinates": [ -80.8685935, 35.2040824 ] } },
{ "type": "Feature", "properties": { "restaurant_id": "xreWxVX3vOmb8eEPUIpQaw", "name": "Sandwich Shop", "lat": 35.2396583, "long": -80.7989343, "stars": 4.0, "price": "1", "earliestDate": "1\/8\/12", "year": 2012 }, "geometry": { "type": "Point", "coordinates": [ -80.7989343, 35.2396583 ] } },
{ "type": "Feature", "properties": { "restaurant_id": "bjzFOyHG4Ux1CPCIk-b_5A", "name": "NoDa 101", "lat": 35.2472603, "long": -80.8056385, "stars": 4.0, "price": "2", "earliestDate": "1\/18\/12", "year": 2012 }, "geometry": { "type": "Point", "coordinates": [ -80.8056385, 35.2472603 ] } },
{ "type": "Feature", "properties": { "restaurant_id": "OmPHtR7w8hg2Z3lf7VALxw", "name": "Oakhurst Grill", "lat": 35.1966343, "long": -80.7906021, "stars": 4.0, "price": "1", "earliestDate": "1\/20\/12", "year": 2012 }, "geometry": { "type": "Point", "coordinates": [ -80.7906021, 35.1966343 ] } },
{ "type": "Feature", "properties": { "restaurant_id": "5Day_lf10DyvKk9tmKqjRA", "name": "Salud Beer Shop", "lat": 35.2477994, "long": -80.8040482, "stars": 5.0, "price": "2", "earliestDate": "3\/15\/12", "year": 2012 }, "geometry": { "type": "Point", "coordinates": [ -80.8040482, 35.2477994 ] } },
{ "type": "Feature", "properties": { "restaurant_id": "HFSyU3JO8PAg34BCsPMo0g", "name": "Picante Mexican Grill", "lat": 35.22930183, "long": -80.86549584, "stars": 3.5, "price": "1", "earliestDate": "4\/1\/12", "year": 2012 }, "geometry": { "type": "Point", "coordinates": [ -80.86549584, 35.22930183 ] } },
{ "type": "Feature", "properties": { "restaurant_id": "1hfYBwAI7pFz50l5n4JpqQ", "name": "Noda Bodega", "lat": 35.2416495, "long": -80.79808552, "stars": 4.5, "price": "1", "earliestDate": "4\/24\/12", "year": 2012 }, "geometry": { "type": "Point", "coordinates": [ -80.79808552, 35.2416495 ] } },
{ "type": "Feature", "properties": { "restaurant_id": "wArcCMVnrl_tc9MULW-0CQ", "name": "Heist Brewery", "lat": 35.2454231, "long": -80.8094402, "stars": 3.5, "price": "2", "earliestDate": "9\/1\/12", "year": 2012 }, "geometry": { "type": "Point", "coordinates": [ -80.8094402, 35.2454231 ] } },
{ "type": "Feature", "properties": { "restaurant_id": "ntMauFOy3bpFqrYG7n0v2Q", "name": "Chicken King", "lat": 35.2332277, "long": -80.8077151, "stars": 4.0, "price": "1", "earliestDate": "2\/6\/13", "year": 2013 }, "geometry": { "type": "Point", "coordinates": [ -80.8077151, 35.2332277 ] } },
{ "type": "Feature", "properties": { "restaurant_id": "-I27yVw2x_-31_OOMSH02w", "name": "Local Loaf", "lat": 35.2446059, "long": -80.8033345, "stars": 4.0, "price": "2", "earliestDate": "4\/26\/13", "year": 2013 }, "geometry": { "type": "Point", "coordinates": [ -80.8033345, 35.2446059 ] } },
{ "type": "Feature", "properties": { "restaurant_id": "yZJXI548rFihEg0NVR1Kjw", "name": "Saona Dominican Restaurant & Bar", "lat": 35.2500759, "long": -80.7813192, "stars": 3.0, "price": "2", "earliestDate": "4\/17\/14", "year": 2014 }, "geometry": { "type": "Point", "coordinates": [ -80.7813192, 35.2500759 ] } },
{ "type": "Feature", "properties": { "restaurant_id": "zrEmWr6ue5yfxnKr4E2_jg", "name": "Bleu Barn Bistro", "lat": 35.1743999, "long": -80.9041817, "stars": 4.5, "price": "1", "earliestDate": "6\/20\/14", "year": 2014 }, "geometry": { "type": "Point", "coordinates": [ -80.9041817, 35.1743999 ] } },
{ "type": "Feature", "properties": { "restaurant_id": "pe20N--YSUZlKYa-WaSfJA", "name": "China Buffet", "lat": 35.1972547, "long": -80.7693723, "stars": 3.5, "price": "2", "earliestDate": "6\/30\/14", "year": 2014 }, "geometry": { "type": "Point", "coordinates": [ -80.7693723, 35.1972547 ] } },
{ "type": "Feature", "properties": { "restaurant_id": "D3Ei0xJJRU8lex-ZqzMfDg", "name": "The Clock Tower Restaurant", "lat": 35.188146, "long": -80.914997, "stars": 3.5, "price": "2", "earliestDate": "11\/4\/14", "year": 2014 }, "geometry": { "type": "Point", "coordinates": [ -80.914997, 35.188146 ] } },
{ "type": "Feature", "properties": { "restaurant_id": "Tnc-QnFufxhnj32GC90C-Q", "name": "Rhino Market & Deli", "lat": 35.22971959, "long": -80.86591418, "stars": 4.5, "price": "1", "earliestDate": "11\/23\/14", "year": 2014 }, "geometry": { "type": "Point", "coordinates": [ -80.86591418, 35.22971959 ] } },
{ "type": "Feature", "properties": { "restaurant_id": "HzGeL_H3rkm5W9DkN9FQBw", "name": "Golden Wok", "lat": 35.2158559, "long": -80.8838906, "stars": 3.5, "price": "1", "earliestDate": "5\/29\/15", "year": 2015 }, "geometry": { "type": "Point", "coordinates": [ -80.8838906, 35.2158559 ] } },
{ "type": "Feature", "properties": { "restaurant_id": "uDb1lOfDhl_VLmAbYvp-vQ", "name": "Benny Pennello's", "lat": 35.2454231, "long": -80.8094402, "stars": 4.0, "price": "1", "earliestDate": "6\/3\/15", "year": 2015 }, "geometry": { "type": "Point", "coordinates": [ -80.8094402, 35.2454231 ] } }
]
}
